{"addresses":[{"alias":"","address":"3634 W Market St, Fairlawn, OH 44333","lat":41.135762259364,"lng":-81.629313826561,"is_depot":true,"time":300,"curbside_lat":null,"curbside_lng":null,"time_window_start":28800,"time_window_end":29465},{"alias":"","address":"1218 Ruth Ave, Cuyahoga Falls, OH 44221","lat":41.135762259364,"lng":-81.629313826561,"time":300,"curbside_lat":null,"curbside_lng":null,"time_window_start":29465,"time_window_end":30529},{"alias":"","address":"512 Florida Pl, Barberton, OH 44203","lat":41.003671512008,"lng":-81.598461046815,"time":300,"curbside_lat":null,"curbside_lng":null,"time_window_start":30529,"time_window_end":33779},{"alias":"","address":"512 Florida Pl, Barberton, OH 44203","lat":41.003671512008,"lng":-81.598461046815,"time":100,"curbside_lat":null,"curbside_lng":null,"time_window_start":33779,"time_window_end":33944},{"alias":"","address":"3495 Purdue St, Cuyahoga Falls, OH 44221","lat":41.162971496582,"lng":-81.479049682617,"time":300,"curbside_lat":null,"curbside_lng":null,"time_window_start":33944,"time_window_end":34801},{"alias":"","address":"1659 Hibbard Dr, Stow, OH 44224","lat":41.194505989552,"lng":-81.443351581693,"time":300,"curbside_lat":null,"curbside_lng":null,"time_window_start":34801,"time_window_end":36366},{"alias":"","address":"2705 N River Rd, Stow, OH 44224","lat":41.145240783691,"lng":-81.410247802734,"time":300,"curbside_lat":null,"curbside_lng":null,"time_window_start":36366,"time_window_end":39173},{"alias":"","address":"10159 Bissell Dr, Twinsburg, OH 44087","lat":41.340042114258,"lng":-81.421226501465,"time":300,"curbside_lat":null,"curbside_lng":null,"time_window_start":39173,"time_window_end":41617},{"alias":"","address":"367 Cathy Dr, Munroe Falls, OH 44262","lat":41.148578643799,"lng":-81.429229736328,"time":300,"curbside_lat":null,"curbside_lng":null,"time_window_start":41617,"time_window_end":43660},{"alias":"","address":"367 Cathy Dr, Munroe Falls, OH 44262","lat":41.148578643799,"lng":-81.429229736328,"time":300,"curbside_lat":null,"curbside_lng":null,"time_window_start":43660,"time_window_end":46392},{"alias":"","address":"512 Florida Pl, Barberton, OH 44203","lat":41.003671512008,"lng":-81.598461046815,"time":300,"curbside_lat":null,"curbside_lng":null,"time_window_start":46392,"time_window_end":48389},{"alias":"","address":"559 W Aurora Rd, Northfield, OH 44067","lat":41.315116882324,"lng":-81.558746337891,"time":50,"curbside_lat":null,"curbside_lng":null,"time_window_start":48389,"time_window_end":48449},{"alias":"","address":"3933 Klein Ave, Stow, OH 44224","lat":41.169467926025,"lng":-81.429420471191,"time":300,"curbside_lat":null,"curbside_lng":null,"time_window_start":48449,"time_window_end":50152},{"alias":"","address":"2148 8th St, Cuyahoga Falls, OH 44221","lat":41.136692047119,"lng":-81.493492126465,"time":300,"curbside_lat":null,"curbside_lng":null,"time_window_start":50152,"time_window_end":51982},{"alias":"","address":"3731 Osage St, Stow, OH 44224","lat":41.161357879639,"lng":-81.42293548584,"time":100,"curbside_lat":null,"curbside_lng":null,"time_window_start":51982,"time_window_end":52180},{"alias":"","address":"3731 Osage St, Stow, OH 44224","lat":41.161357879639,"lng":-81.42293548584,"time":300,"curbside_lat":null,"curbside_lng":null,"time_window_start":52180,"time_window_end":54379}],"parameters":{"route_name":"Multiple Depot, Multiple Driver","algorithm_type":4,"route_date":53583232,"route_time":25200,"optimize":"Distance","distance_unit":"mi","device_type":"web","route_max_duration":86400,"vehicle_capacity":"1","vehicle_max_distance_mi":"10000","travel_mode":"Driving","metric":3}}
