{"addresses":[{"address":"151 Arbor Way Milledgeville GA 31061","curbside_lat":null,"curbside_lng":null,"custom_fields":{"color":"red","size":"huge"},"is_depot":true,"lat":33.132675170898,"lng":-83.244743347168,"time":0},{"address":"230 Arbor Way Milledgeville GA 31061","curbside_lat":null,"curbside_lng":null,"lat":33.129695892334,"lng":-83.24577331543,"time":0},{"address":"148 Bass Rd NE Milledgeville GA 31061","curbside_lat":null,"curbside_lng":null,"lat":33.143497,"lng":-83.224487,"time":0},{"address":"117 Bill Johnson Rd NE Milledgeville GA 31061","curbside_lat":null,"curbside_lng":null,"lat":33.141784667969,"lng":-83.237518310547,"time":0},{"address":"119 Bill Johnson Rd NE Milledgeville GA 31061","curbside_lat":null,"curbside_lng":null,"lat":33.141086578369,"lng":-83.238258361816,"time":0},{"address":"131 Bill Johnson Rd NE Milledgeville GA 31061","curbside_lat":null,"curbside_lng":null,"lat":33.142036437988,"lng":-83.238845825195,"time":0},{"address":"138 Bill Johnson Rd NE Milledgeville GA 31061","curbside_lat":null,"curbside_lng":null,"lat":33.14307,"lng":-83.239334,"time":0},{"address":"139 Bill Johnson Rd NE Milledgeville GA 31061","curbside_lat":null,"curbside_lng":null,"lat":33.142734527588,"lng":-83.237442016602,"time":0},{"address":"145 Bill Johnson Rd NE Milledgeville GA 31061","curbside_lat":null,"curbside_lng":null,"lat":33.143871307373,"lng":-83.237342834473,"time":0},{"address":"221 Blake Cir Milledgeville GA 31061","curbside_lat":null,"curbside_lng":null,"lat":33.081462860107,"lng":-83.208511352539,"time":0}],"parameters":{"algorithm_type":1,"device_type":"web","distance_unit":"mi","optimize":"Distance","route_date":1475539200,"route_name":"Single Driver Route 10 Stops","route_time":25200,"store_route":false}}
